$GPGGA,175821.00,4101.56477,N,02902.57830,E,1,05,3.25,95.4,M,37.5,M,,*6F
$GPGLL,4101.56477,N,02902.57830,E,175821.00,A,A*62
$GPGGA,175822.00,4101.56475,N,02902.57826,E,1,05,3.25,95.4,M,37.5,M,,*69
$GPGLL,4101.56475,N,02902.57826,E,175822.00,A,A*64
$GPGGA,175823.00,4101.56485,N,02902.57825,E,1,05,3.24,95.4,M,37.5,M,,*65
$GPGLL,4101.56485,N,02902.57825,E,175823.00,A,A*69
$GPGGA,175824.00,4101.56430,N,02902.57784,E,1,05,3.41,95.3,M,37.5,M,,*6C
$GPGLL,4101.56430,N,02902.57784,E,175824.00,A,A*64
$GPGGA,175825.00,4101.56447,N,02902.57793,E,1,05,3.41,95.2,M,37.5,M,,*6A
$GPGLL,4101.56447,N,02902.57793,E,175825.00,A,A*63
$GPGGA,175826.00,4101.56456,N,02902.57796,E,1,05,3.41,95.2,M,37.5,M,,*6C
$GPGLL,4101.56456,N,02902.57796,E,175826.00,A,A*65
$GPGGA,175827.00,4101.56451,N,02902.57789,E,1,04,3.41,95.0,M,37.5,M,,*67
$GPGLL,4101.56451,N,02902.57789,E,175827.00,A,A*6D
$GPGGA,175828.00,4101.56433,N,02902.57776,E,1,04,3.41,95.1,M,37.5,M,,*6D
$GPGLL,4101.56433,N,02902.57776,E,175828.00,A,A*66
$GPGGA,175829.00,4101.56426,N,02902.57761,E,1,04,3.41,95.0,M,37.5,M,,*6F
$GPGLL,4101.56426,N,02902.57761,E,175829.00,A,A*65
$GPGGA,175830.00,4101.56432,N,02902.57755,E,1,04,3.41,94.8,M,37.5,M,,*6C
$GPGLL,4101.56432,N,02902.57755,E,175830.00,A,A*6F
$GPGGA,175831.00,4101.56435,N,02902.57748,E,1,04,3.41,94.7,M,37.5,M,,*69
$GPGLL,4101.56435,N,02902.57748,E,175831.00,A,A*65
$GPGGA,175832.00,4101.56431,N,02902.57737,E,1,04,3.40,94.6,M,37.5,M,,*66
$GPGLL,4101.56431,N,02902.57737,E,175832.00,A,A*6A
$GPGGA,175833.00,4101.56422,N,02902.57721,E,1,04,3.40,94.4,M,37.5,M,,*60
$GPGLL,4101.56422,N,02902.57721,E,175833.00,A,A*6E
$GPGGA,175834.00,4101.56425,N,02902.57714,E,1,04,3.40,94.3,M,37.5,M,,*61
$GPGLL,4101.56425,N,02902.57714,E,175834.00,A,A*68
$GPGGA,175835.00,4101.56435,N,02902.57713,E,1,04,3.40,94.3,M,37.5,M,,*66
$GPGLL,4101.56435,N,02902.57713,E,175835.00,A,A*6F
$GPGGA,175836.00,4101.56437,N,02902.57707,E,1,04,3.40,94.3,M,37.5,M,,*62
$GPGLL,4101.56437,N,02902.57707,E,175836.00,A,A*6B
$GPGGA,175837.00,4101.56428,N,02902.57699,E,1,05,3.40,94.3,M,37.5,M,,*6A
$GPGLL,4101.56428,N,02902.57699,E,175837.00,A,A*62
$GPGGA,175838.00,4101.56418,N,02902.57687,E,1,05,3.40,94.4,M,37.5,M,,*6E
$GPGLL,4101.56418,N,02902.57687,E,175838.00,A,A*61
$GPGGA,175839.00,4101.56425,N,02902.57687,E,1,05,3.23,94.3,M,37.5,M,,*63
$GPGLL,4101.56425,N,02902.57687,E,175839.00,A,A*6E
$GPGGA,175840.00,4101.56439,N,02902.57698,E,1,05,3.23,94.5,M,37.5,M,,*68
$GPGLL,4101.56439,N,02902.57698,E,175840.00,A,A*63
$GPGGA,175841.00,4101.56438,N,02902.57695,E,1,05,3.23,94.5,M,37.5,M,,*65
$GPGLL,4101.56438,N,02902.57695,E,175841.00,A,A*6E
$GPGGA,175842.00,4101.56415,N,02902.57673,E,1,05,3.23,94.3,M,37.5,M,,*67
$GPGLL,4101.56415,N,02902.57673,E,175842.00,A,A*6A
$GPGGA,175843.00,4101.56410,N,02902.57663,E,1,05,3.23,94.1,M,37.5,M,,*60
$GPGLL,4101.56410,N,02902.57663,E,175843.00,A,A*6F
$GPGGA,175844.00,4101.56404,N,02902.57658,E,1,05,3.23,93.9,M,37.5,M,,*65
$GPGLL,4101.56404,N,02902.57658,E,175844.00,A,A*65
$GPGGA,175845.00,4101.56408,N,02902.57660,E,1,05,3.23,93.9,M,37.5,M,,*63
$GPGLL,4101.56408,N,02902.57660,E,175845.00,A,A*63
$GPGGA,175846.00,4101.56383,N,02902.57639,E,1,05,3.22,93.6,M,37.5,M,,*66
$GPGLL,4101.56383,N,02902.57639,E,175846.00,A,A*68
$GPGGA,175847.00,4101.56392,N,02902.57645,E,1,05,3.22,93.5,M,37.5,M,,*6F
$GPGLL,4101.56392,N,02902.57645,E,175847.00,A,A*62
$GPGGA,175848.00,4101.56423,N,02902.57665,E,1,05,3.22,93.5,M,37.5,M,,*6F
$GPGLL,4101.56423,N,02902.57665,E,175848.00,A,A*62
$GPGGA,175849.00,4101.56427,N,02902.57666,E,1,05,3.22,93.5,M,37.5,M,,*69
$GPGLL,4101.56427,N,02902.57666,E,175849.00,A,A*64
$GPGGA,175850.00,4101.56418,N,02902.57659,E,1,05,3.22,93.5,M,37.5,M,,*61
$GPGLL,4101.56418,N,02902.57659,E,175850.00,A,A*6C
$GPGGA,175851.00,4101.56419,N,02902.57661,E,1,05,3.22,93.5,M,37.5,M,,*6A
$GPGLL,4101.56419,N,02902.57661,E,175851.00,A,A*67
$GPGGA,175852.00,4101.56425,N,02902.57663,E,1,05,3.22,93.4,M,37.5,M,,*65
$GPGLL,4101.56425,N,02902.57663,E,175852.00,A,A*69
$GPGGA,175853.00,4101.56428,N,02902.57677,E,1,05,3.22,93.7,M,37.5,M,,*6F
$GPGLL,4101.56428,N,02902.57677,E,175853.00,A,A*60
$GPGGA,175854.00,4101.56428,N,02902.57686,E,1,05,3.22,93.8,M,37.5,M,,*69
$GPGLL,4101.56428,N,02902.57686,E,175854.00,A,A*69
$GPGGA,175855.00,4101.56410,N,02902.57679,E,1,05,3.22,93.8,M,37.5,M,,*63
$GPGLL,4101.56410,N,02902.57679,E,175855.00,A,A*63
$GPGGA,175856.00,4101.56430,N,02902.57699,E,1,05,3.22,93.9,M,37.5,M,,*6D
$GPGLL,4101.56430,N,02902.57699,E,175856.00,A,A*6C
$GPGGA,175857.00,4101.56439,N,02902.57707,E,1,05,3.22,94.0,M,37.5,M,,*6D
$GPGLL,4101.56439,N,02902.57707,E,175857.00,A,A*62
$GPGGA,175858.00,4101.56421,N,02902.57692,E,1,05,3.21,93.9,M,37.5,M,,*6B
$GPGLL,4101.56421,N,02902.57692,E,175858.00,A,A*69
$GPGGA,175859.00,4101.56411,N,02902.57684,E,1,05,3.21,94.0,M,37.5,M,,*60
$GPGLL,4101.56411,N,02902.57684,E,175859.00,A,A*6C
$GPGGA,175900.00,4101.56418,N,02902.57694,E,1,05,3.21,94.1,M,37.5,M,,*64
$GPGLL,4101.56418,N,02902.57694,E,175900.00,A,A*69
$GPGGA,175901.00,4101.56430,N,02902.57702,E,1,05,3.21,94.1,M,37.5,M,,*61
$GPGLL,4101.56430,N,02902.57702,E,175901.00,A,A*6C
$GPGGA,175902.00,4101.56434,N,02902.57706,E,1,05,3.21,94.2,M,37.5,M,,*61
$GPGLL,4101.56434,N,02902.57706,E,175902.00,A,A*6F
$GPGGA,175903.00,4101.56437,N,02902.57711,E,1,05,3.21,94.3,M,37.5,M,,*64
$GPGLL,4101.56437,N,02902.57711,E,175903.00,A,A*6B
$GPGGA,175904.00,4101.56437,N,02902.57713,E,1,05,3.21,94.4,M,37.5,M,,*66
$GPGLL,4101.56437,N,02902.57713,E,175904.00,A,A*6E
$GPGGA,175905.00,4101.56446,N,02902.57717,E,1,05,3.21,94.3,M,37.5,M,,*62
$GPGLL,4101.56446,N,02902.57717,E,175905.00,A,A*6D
$GPGGA,175906.00,4101.56459,N,02902.57722,E,1,05,3.21,94.3,M,37.5,M,,*69
$GPGLL,4101.56459,N,02902.57722,E,175906.00,A,A*66
$GPGGA,175907.00,4101.56460,N,02902.57719,E,1,05,3.21,94.2,M,37.5,M,,*6B
$GPGLL,4101.56460,N,02902.57719,E,175907.00,A,A*65
$GPGGA,175908.00,4101.56447,N,02902.57707,E,1,05,3.21,94.1,M,37.5,M,,*6D
$GPGLL,4101.56447,N,02902.57707,E,175908.00,A,A*60
$GPGGA,175909.00,4101.56441,N,02902.57699,E,1,05,3.21,94.0,M,37.5,M,,*6D
$GPGLL,4101.56441,N,02902.57699,E,175909.00,A,A*61
$GPGGA,175910.00,4101.56430,N,02902.57685,E,1,05,3.20,93.9,M,37.5,M,,*61
$GPGLL,4101.56430,N,02902.57685,E,175910.00,A,A*62
$GPGGA,175911.00,4101.56430,N,02902.57682,E,1,05,3.20,93.9,M,37.5,M,,*67
$GPGLL,4101.56430,N,02902.57682,E,175911.00,A,A*64
$GPGGA,175912.00,4101.56456,N,02902.57697,E,1,05,3.20,94.1,M,37.5,M,,*6F
$GPGLL,4101.56456,N,02902.57697,E,175912.00,A,A*63
$GPGGA,175913.00,4101.56441,N,02902.57684,E,1,05,3.20,94.0,M,37.5,M,,*6B
$GPGLL,4101.56441,N,02902.57684,E,175913.00,A,A*66
$GPGGA,175914.00,4101.56439,N,02902.57683,E,1,05,3.20,94.0,M,37.5,M,,*64
$GPGLL,4101.56439,N,02902.57683,E,175914.00,A,A*69
$GPGGA,175915.00,4101.56431,N,02902.57676,E,1,05,3.20,93.9,M,37.5,M,,*69
$GPGLL,4101.56431,N,02902.57676,E,175915.00,A,A*6A
$GPGGA,175916.00,4101.56426,N,02902.57668,E,1,05,3.20,93.8,M,37.5,M,,*62
$GPGLL,4101.56426,N,02902.57668,E,175916.00,A,A*60
$GPGGA,175917.00,4101.56411,N,02902.57652,E,1,05,3.20,93.7,M,37.5,M,,*61
$GPGLL,4101.56411,N,02902.57652,E,175917.00,A,A*6C
$GPGGA,175918.00,4101.56401,N,02902.57640,E,1,05,3.20,93.6,M,37.5,M,,*6D
$GPGLL,4101.56401,N,02902.57640,E,175918.00,A,A*61
$GPGGA,175919.00,4101.56403,N,02902.57646,E,1,05,3.20,93.7,M,37.5,M,,*69
$GPGLL,4101.56403,N,02902.57646,E,175919.00,A,A*64
$GPGGA,175920.00,4101.56404,N,02902.57648,E,1,05,3.20,93.8,M,37.5,M,,*65
$GPGLL,4101.56404,N,02902.57648,E,175920.00,A,A*67
$GPGGA,175921.00,4101.56400,N,02902.57642,E,1,05,3.20,93.9,M,37.5,M,,*6B
$GPGLL,4101.56400,N,02902.57642,E,175921.00,A,A*68
$GPGGA,175922.00,4101.56397,N,02902.57641,E,1,05,3.19,94.0,M,37.5,M,,*66
$GPGLL,4101.56397,N,02902.57641,E,175922.00,A,A*61
$GPGGA,175923.00,4101.56401,N,02902.57641,E,1,05,3.19,93.9,M,37.5,M,,*61
$GPGLL,4101.56401,N,02902.57641,E,175923.00,A,A*68
$GPGGA,175924.00,4101.56406,N,02902.57641,E,1,05,3.19,93.8,M,37.5,M,,*60
$GPGLL,4101.56406,N,02902.57641,E,175924.00,A,A*68
$GPGGA,175925.00,4101.56398,N,02902.57631,E,1,05,3.19,93.7,M,37.5,M,,*69
$GPGLL,4101.56398,N,02902.57631,E,175925.00,A,A*6E
$GPGGA,175926.00,4101.56394,N,02902.57630,E,1,05,3.19,93.8,M,37.5,M,,*68
$GPGLL,4101.56394,N,02902.57630,E,175926.00,A,A*60
$GPGGA,175927.00,4101.56392,N,02902.57630,E,1,05,3.19,93.7,M,37.5,M,,*60
$GPGLL,4101.56392,N,02902.57630,E,175927.00,A,A*67
$GPGGA,175928.00,4101.56392,N,02902.57630,E,1,05,3.19,93.7,M,37.5,M,,*6F
$GPGLL,4101.56392,N,02902.57630,E,175928.00,A,A*68
$GPGGA,175929.00,4101.56394,N,02902.57637,E,1,05,3.19,93.9,M,37.5,M,,*61
$GPGLL,4101.56394,N,02902.57637,E,175929.00,A,A*68
$GPGGA,175930.00,4101.56390,N,02902.57636,E,1,05,3.19,94.0,M,37.5,M,,*62
$GPGLL,4101.56390,N,02902.57636,E,175930.00,A,A*65
$GPGGA,175931.00,4101.56387,N,02902.57637,E,1,05,3.19,94.1,M,37.5,M,,*65
$GPGLL,4101.56387,N,02902.57637,E,175931.00,A,A*63
$GPGGA,175932.00,4101.56390,N,02902.57639,E,1,05,3.19,94.2,M,37.5,M,,*6D
$GPGLL,4101.56390,N,02902.57639,E,175932.00,A,A*68
$GPGGA,175933.00,4101.56391,N,02902.57638,E,1,05,3.19,94.4,M,37.5,M,,*6A
$GPGLL,4101.56391,N,02902.57638,E,175933.00,A,A*69
$GPGGA,175934.00,4101.56386,N,02902.57630,E,1,05,3.18,94.5,M,37.5,M,,*63
$GPGLL,4101.56386,N,02902.57630,E,175934.00,A,A*60
$GPGGA,175935.00,4101.56374,N,02902.57613,E,1,05,3.18,94.4,M,37.5,M,,*6F
$GPGLL,4101.56374,N,02902.57613,E,175935.00,A,A*6D
$GPGGA,175936.00,4101.56362,N,02902.57602,E,1,05,3.18,94.3,M,37.5,M,,*6C
$GPGLL,4101.56362,N,02902.57602,E,175936.00,A,A*69
$GPGGA,175937.00,4101.56351,N,02902.57593,E,1,05,3.18,94.2,M,37.5,M,,*67
$GPGLL,4101.56351,N,02902.57593,E,175937.00,A,A*63
$GPGGA,175938.00,4101.56342,N,02902.57589,E,1,05,3.18,94.2,M,37.5,M,,*61
$GPGLL,4101.56342,N,02902.57589,E,175938.00,A,A*65
$GPGGA,175939.00,4101.56327,N,02902.57575,E,1,05,3.18,94.1,M,37.5,M,,*63
$GPGLL,4101.56327,N,02902.57575,E,175939.00,A,A*64
$GPGGA,175940.00,4101.56321,N,02902.57573,E,1,05,3.18,94.1,M,37.5,M,,*6D
$GPGLL,4101.56321,N,02902.57573,E,175940.00,A,A*6A
$GPGGA,175941.00,4101.56321,N,02902.57580,E,1,05,3.18,94.2,M,37.5,M,,*63
$GPGLL,4101.56321,N,02902.57580,E,175941.00,A,A*67
$GPGGA,175942.00,4101.56322,N,02902.57587,E,1,05,3.18,94.3,M,37.5,M,,*65
$GPGLL,4101.56322,N,02902.57587,E,175942.00,A,A*60
$GPGGA,175943.00,4101.56312,N,02902.57580,E,1,04,3.34,94.3,M,37.5,M,,*6F
$GPGLL,4101.56312,N,02902.57580,E,175943.00,A,A*65
$GPGGA,175944.00,4101.56303,N,02902.57571,E,1,04,3.34,94.3,M,37.5,M,,*66
$GPGLL,4101.56303,N,02902.57571,E,175944.00,A,A*6C
$GPGGA,175945.00,4101.56296,N,02902.57564,E,1,04,3.34,94.2,M,37.5,M,,*6F
$GPGLL,4101.56296,N,02902.57564,E,175945.00,A,A*64
$GPGGA,175946.00,4101.56291,N,02902.57560,E,1,05,3.18,94.2,M,37.5,M,,*60
$GPGLL,4101.56291,N,02902.57560,E,175946.00,A,A*64
$GPGGA,175947.00,4101.56282,N,02902.57550,E,1,05,3.17,94.1,M,37.5,M,,*6C
$GPGLL,4101.56282,N,02902.57550,E,175947.00,A,A*64
$GPGGA,175948.00,4101.56273,N,02902.57538,E,1,05,3.34,94.1,M,37.5,M,,*62
$GPGLL,4101.56273,N,02902.57538,E,175948.00,A,A*6B
$GPGGA,175949.00,4101.56266,N,02902.57529,E,1,05,3.34,94.1,M,37.5,M,,*67
$GPGLL,4101.56266,N,02902.57529,E,175949.00,A,A*6E
$GPGGA,175950.00,4101.56262,N,02902.57525,E,1,05,3.34,94.1,M,37.5,M,,*67
$GPGLL,4101.56262,N,02902.57525,E,175950.00,A,A*6E
$GPGGA,175951.00,4101.56256,N,02902.57518,E,1,05,3.34,94.1,M,37.5,M,,*6F
$GPGLL,4101.56256,N,02902.57518,E,175951.00,A,A*66
$GPGGA,175952.00,4101.56248,N,02902.57509,E,1,04,3.34,94.2,M,37.5,M,,*61
$GPGLL,4101.56248,N,02902.57509,E,175952.00,A,A*6A
$GPGGA,175953.00,4101.56235,N,02902.57497,E,1,04,3.34,94.1,M,37.5,M,,*6F
$GPGLL,4101.56235,N,02902.57497,E,175953.00,A,A*67
$GPGGA,175954.00,4101.56229,N,02902.57493,E,1,04,3.34,94.0,M,37.5,M,,*60
$GPGLL,4101.56229,N,02902.57493,E,175954.00,A,A*69
$GPGGA,175955.00,4101.56224,N,02902.57492,E,1,04,3.33,94.0,M,37.5,M,,*6A
$GPGLL,4101.56224,N,02902.57492,E,175955.00,A,A*64
$GPGGA,175956.00,4101.56213,N,02902.57481,E,1,04,3.33,93.9,M,37.5,M,,*61
$GPGLL,4101.56213,N,02902.57481,E,175956.00,A,A*61
$GPGGA,175957.00,4101.56194,N,02902.57462,E,1,04,3.33,93.7,M,37.5,M,,*6F
$GPGLL,4101.56194,N,02902.57462,E,175957.00,A,A*61
$GPGGA,175958.00,4101.56189,N,02902.57459,E,1,04,3.33,93.6,M,37.5,M,,*65
$GPGLL,4101.56189,N,02902.57459,E,175958.00,A,A*6A
$GPGGA,175959.00,4101.56192,N,02902.57466,E,1,04,3.33,93.6,M,37.5,M,,*62
$GPGLL,4101.56192,N,02902.57466,E,175959.00,A,A*6D
$GPGGA,180000.00,4101.56183,N,02902.57456,E,1,04,3.33,93.5,M,37.5,M,,*6D
$GPGLL,4101.56183,N,02902.57456,E,180000.00,A,A*61
$GPGGA,180001.00,4101.56170,N,02902.57445,E,1,04,3.33,93.4,M,37.5,M,,*63
$GPGLL,4101.56170,N,02902.57445,E,180001.00,A,A*6E
$GPGGA,180002.00,4101.56159,N,02902.57437,E,1,04,3.33,93.3,M,37.5,M,,*69
$GPGLL,4101.56159,N,02902.57437,E,180002.00,A,A*63
$GPGGA,180003.00,4101.56135,N,02902.57425,E,1,04,3.33,93.2,M,37.5,M,,*60
$GPGLL,4101.56135,N,02902.57425,E,180003.00,A,A*6B
$GPGGA,180004.00,4101.56127,N,02902.57417,E,1,05,3.33,93.2,M,37.5,M,,*64
$GPGLL,4101.56127,N,02902.57417,E,180004.00,A,A*6E
$GPGGA,180005.00,4101.56122,N,02902.57411,E,1,05,3.33,93.2,M,37.5,M,,*66
$GPGLL,4101.56122,N,02902.57411,E,180005.00,A,A*6C
$GPGGA,180006.00,4101.56117,N,02902.57407,E,1,05,3.33,93.2,M,37.5,M,,*64
$GPGLL,4101.56117,N,02902.57407,E,180006.00,A,A*6E
$GPGGA,180007.00,4101.56113,N,02902.57404,E,1,05,3.33,93.1,M,37.5,M,,*61
$GPGLL,4101.56113,N,02902.57404,E,180007.00,A,A*68
$GPGGA,180008.00,4101.56115,N,02902.57408,E,1,05,3.16,93.1,M,37.5,M,,*63
$GPGLL,4101.56115,N,02902.57408,E,180008.00,A,A*6D
$GPGGA,180009.00,4101.56123,N,02902.57417,E,1,05,3.16,93.2,M,37.5,M,,*6A
$GPGLL,4101.56123,N,02902.57417,E,180009.00,A,A*67
$GPGGA,180010.00,4101.56122,N,02902.57416,E,1,05,3.16,93.3,M,37.5,M,,*63
$GPGLL,4101.56122,N,02902.57416,E,180010.00,A,A*6F
$GPGGA,180011.00,4101.56124,N,02902.57417,E,1,05,3.16,93.3,M,37.5,M,,*65
$GPGLL,4101.56124,N,02902.57417,E,180011.00,A,A*69
